name,lat,lon
Daejeon Veterans Hospital,36.4284,127.4277
Daejeon Korean Hospital,36.332,127.4455
Daecheong Hospital,36.3017,127.3731
Konyang University Hospital,36.2881,127.3441
Eulji University Hospital Daejeon,36.3542,127.3784
Yuseong Sun Hospital,36.3676,127.3374
Daejeon St. Mary's Hospital,36.3226,127.4188
Daejeon Sun Hospital,36.3245,127.4216
Chungnam National University Hospital,36.3128,127.4075
